[
{"affiliation":"Respiratory and Meningeal Pathogens Research Unit, University of the Witwatersrand","address":"1 Jan Smuts Ave, Johannesburg, 2000, South Africa","latitude":"-26.13836","longitude":"28.03455","isolates":true},
{"affiliation":"Vaccine Research and Development, Pfizer","address":"401 N Middletown Rd, Pearl River, NY 10965, United States","latitude":"41.07851","longitude":"-74.01445","isolates":true},
{"affiliation":"Kempegowda Institute of Medical Sciences","address":"Athibabbe Road, Near BDA Complex, 30th Main Road, Banashankari Stage II, Banashankari, Bengaluru, Karnataka 560070, India","latitude":"12.96557","longitude":"77.60625","isolates":true},
{"affiliation":"St George’s, University of London","address":"Cranmer Terrace, Tooting, London SW17 0RE","latitude":"51.4278","longitude":"-0.17577","isolates":true},
{"affiliation":"Universidade Federal do Rio de Janeiro","address":"Av. Pedro Calmon, 550 - Cidade Universitária da Universidade Federal do Rio de Janeiro, Rio de Janeiro - RJ, 21941-901, Brazil","latitude":"-22.863711","longitude":"-43.227739","isolates":true},
{"affiliation":"Child Health Research Foundation","address":"Dhaka Shishu Hospital, Sher-e Bangla Nagar, Dhaka-1207, Bangladesh","latitude":"23.733949","longitude":"90.367599","isolates":true},
{"affiliation":"Universidad de Buenos Aires","address":"Viamonte 430, C1053 CABA, Argentina","latitude":"-34.59986","longitude":"-58.37305","isolates":true},
{"affiliation":"The Chinese University of Hong Kong","address":"The Chinese University of Hong Kong, Central Ave, Hong Kong","latitude":"22.41987","longitude":"114.20615","isolates":true},
{"affiliation":"Institute of Epidemiology and Microbiology (Gabrichevsky MRIEM)","address":"10, Admiral Makarov str.,Moscow,125212, Russia","latitude":"55.837486","longitude":"37.489237","isolates":true},
{"affiliation":"Universidad de la Sabana","address":"Campus del Puente del Común, Km. 7, Autopista Norte de Bogotá. Chía, Cundinamarca, Colombia","latitude":"4.861403","longitude":"-74.033078","isolates":true},
{"affiliation":"Suez Canal University ","address":"Suez Canal University, lsmailia, 41522, Egypt","latitude":"30.620779","longitude":"32.270333","isolates":true},
{"affiliation":"Keio University School of Medicine","address":"35 Shinanomachi, Shinjuku City, Tokyo 160-8582, Japan","latitude":"35.649145","longitude":"139.742864","isolates":true},
{"affiliation":"University of Peradeniya","address":"University of Peradeniya, Peradeniya, 20400, Sri Lanka","latitude":"7.258967","longitude":"80.597999","isolates":true},
{"affiliation":"Pontifícia Universidade Católica do Paraná","address":"R. Imac. Conceição, 1155 - Prado Velho, Curitiba - PR, 80215-901, Brazil","latitude":"-25.45195","longitude":"-49.252552","isolates":true},
{"affiliation":"Toros University","address":"Bahçelievler, 33140 Yenişehir/Mersin, Turkey","latitude":"36.790048","longitude":"34.593931","isolates":true},
{"affiliation":"Iaso Hospital, Athens","address":"IASO, 37-39, Kifissias Avenue,151 23 Maroussi, Athens, Greece","latitude":"38.033964","longitude":"23.795419","isolates":true},
{"affiliation":"Universidade Estadual de Londrina","address":"Rodovia Celso Garcia Cid - Pr 445 Km 380 Cx. Postal 10.011 - Campus Universitário, PR, 86057-970, Brazil","latitude":"-23.324602","longitude":"-51.201439","isolates":true},
{"affiliation":"National Reference Laboratories, Israel","address":"Government Central Laboratories, Ministry of Health, Jerusalem 91342, Israel","latitude":"31.790752","longitude":"35.201894","isolates":true},
{"affiliation":"University of North Carolina at Chapel Hill","address":"Chapel Hill, NC, United States","latitude":"35.907405","longitude":"-79.048176","isolates":true},
{"affiliation":"The University of Sydney","address":"Camperdown NSW 2006, Australia","latitude":"-33.888426","longitude":"151.187389","isolates":false},
{"affiliation":"Centers for Disease Control and Prevention ","address":"1600 Clifton Rd, Atlanta, GA 30333, United States","latitude":"33.798639","longitude":"-84.327058","isolates":false},
{"affiliation":"Public Health England","address":"61 Colindale Ave, London NW9 5EQ","latitude":"51.594929","longitude":"-0.254648","isolates":false}
]
